{
  "type": "FeatureCollection",
  "features": [
    {
      "type": "Feature",
      "geometry": {
        "type": "Point",
        "coordinates": [
          -150.166247,
          61.725235
        ]
      },
      "properties": {
        "name": "Willow"
      }
    },
    {
      "type": "Feature",
      "geometry": {
        "type": "Point",
        "coordinates": [
          -151.164165882664,
          61.964846758500585
        ]
      },
      "properties": {
        "name": "Skwentna"
      }
    },
    {
      "type": "Feature",
      "geometry": {
        "type": "Point",
        "coordinates": [
          -152.06939119970653,
          61.98266055444241
        ]
      },
      "properties": {
        "name": "Finger Lake"
      }
    },
    {
      "type": "Feature",
      "geometry": {
        "type": "Point",
        "coordinates": [
          -152.72525377728348,
          62.08706499537472
        ]
      },
      "properties": {
        "name": "Rainy Pass"
      }
    },
    {
      "type": "Feature",
      "geometry": {
        "type": "Point",
        "coordinates": [
          -153.37542984150102,
          62.294712002160004
        ]
      },
      "properties": {
        "name": "Rohn"
      }
    },
    {
      "type": "Feature",
      "geometry": {
        "type": "Point",
        "coordinates": [
          -154.37645682599342,
          63.01141893030972
        ]
      },
      "properties": {
        "name": "Nikolai"
      }
    },
    {
      "type": "Feature",
      "geometry": {
        "type": "Point",
        "coordinates": [
          -155.59636474793913,
          62.95857950430272
        ]
      },
      "properties": {
        "name": "McGrath"
      }
    },
    {
      "type": "Feature",
      "geometry": {
        "type": "Point",
        "coordinates": [
          -156.0688741455907,
          62.98684946721594
        ]
      },
      "properties": {
        "name": "Takotna"
      }
    },
    {
      "type": "Feature",
      "geometry": {
        "type": "Point",
        "coordinates": [
          -156.52061294947285,
          63.14554100331944
        ]
      },
      "properties": {
        "name": "Ophir"
      }
    },
    {
      "type": "Feature",
      "geometry": {
        "type": "Point",
        "coordinates": [
          -155.854862,
          63.947603
        ]
      },
      "properties": {
        "name": "Cripple"
      }
    },
    {
      "type": "Feature",
      "geometry": {
        "type": "Point",
        "coordinates": [
          -155.487987,
          64.73319
        ]
      },
      "properties": {
        "name": "Ruby"
      }
    },
    {
      "type": "Feature",
      "geometry": {
        "type": "Point",
        "coordinates": [
          -156.92734296746679,
          64.73213152948003
        ]
      },
      "properties": {
        "name": "Galena"
      }
    },
    {
      "type": "Feature",
      "geometry": {
        "type": "Point",
        "coordinates": [
          -158.0665034753038,
          64.70465985607993
        ]
      },
      "properties": {
        "name": "Nulato"
      }
    },
    {
      "type": "Feature",
      "geometry": {
        "type": "Point",
        "coordinates": [
          -158.72697869713295,
          64.3277331741317
        ]
      },
      "properties": {
        "name": "Kaltag"
      }
    },
    {
      "type": "Feature",
      "geometry": {
        "type": "Point",
        "coordinates": [
          -160.7602935394239,
          63.87107687954632
        ]
      },
      "properties": {
        "name": "Unalakleet"
      }
    },
    {
      "type": "Feature",
      "geometry": {
        "type": "Point",
        "coordinates": [
          -161.2141756412343,
          64.36721780597979
        ]
      },
      "properties": {
        "name": "Shaktoolik"
      }
    },
    {
      "type": "Feature",
      "geometry": {
        "type": "Point",
        "coordinates": [
          -161.15956624651355,
          64.93158192501913
        ]
      },
      "properties": {
        "name": "Koyuk"
      }
    },
    {
      "type": "Feature",
      "geometry": {
        "type": "Point",
        "coordinates": [
          -162.26016120735184,
          64.6175353761794
        ]
      },
      "properties": {
        "name": "Elim"
      }
    },
    {
      "type": "Feature",
      "geometry": {
        "type": "Point",
        "coordinates": [
          -164.75868813232617,
          64.46679627908738
        ]
      },
      "properties": {
        "name": "Safety"
      }
    },
    {
      "type": "Feature",
      "geometry": {
        "type": "Point",
        "coordinates": [
          -165.4093761704258,
          64.5004902739461
        ]
      },
      "properties": {
        "name": "Nome"
      }
    }
  ]
}